{"EPWA":{"icao":"EPWA","label":"EPWA - Warsaw Frederic Chopin","name":"Warsaw Frederic Chopin","lat":52.1651,"lon":20.967},"LFPG":{"icao":"LFPG","label":"LFPG - Paris Charles De Gaulle","name":"Paris Charles De Gaulle","lat":49.0097,"lon":2.56257},"KDMA":{"icao":"KDMA","label":"KDMA - Davis Monthan AFB Airport","name":"Davis Monthan AFB Airport","lat":32.1664,"lon":-110.883},"KSWF":{"icao":"KSWF","label":"KSWF - Stewart","name":"Stewart","lat":41.5041,"lon":-74.1026},"KJFK":{"icao":"KJFK","label":"KJFK - John F. Kennedy Intl","name":"John F. Kennedy Intl","lat":40.6401,"lon":-73.7765},"KDFW":{"icao":"KDFW","label":"KDFW - Dallas Fort Worth Intl","name":"Dallas Fort Worth Intl","lat":32.8972,"lon":-97.0377},"RKSI":{"icao":"RKSI","label":"RKSI - Incheon Intl","name":"Incheon Intl","lat":37.4654,"lon":126.443},"RKPC":{"icao":"RKPC","label":"RKPC - Jeju International Airport","name":"Jeju International Airport","lat":33.509,"lon":126.489},"RJAA":{"icao":"RJAA","label":"RJAA - Narita","name":"Narita","lat":35.7772,"lon":140.382},"PANC":{"icao":"PANC","label":"PANC - Ted Stevens Anchorage Intl","name":"Ted Stevens Anchorage Intl","lat":61.1743,"lon":-149.998},"UNKL":{"icao":"UNKL","label":"UNKL - Krasnoyarsk Yemelyanovo Intl","name":"Krasnoyarsk Yemelyanovo Intl","lat":56.1729,"lon":92.4933},"EDDL":{"icao":"EDDL","label":"EDDL - Dusseldorf","name":"Dusseldorf","lat":51.2894,"lon":6.76662},"EDLP":{"icao":"EDLP","label":"EDLP - Paderborn Lippstadt","name":"Paderborn Lippstadt","lat":51.6141,"lon":8.61632},"UMMS":{"icao":"UMMS","label":"UMMS - Minsk National","name":"Minsk National","lat":53.8876,"lon":28.0412},"EINN":{"icao":"EINN","label":"EINN - Shannon","name":"Shannon","lat":52.702,"lon":-8.92483},"EGOQ":{"icao":"EGOQ","label":"EGOQ - Mona","name":"Mona","lat":53.2593,"lon":-4.37401},"EGGP":{"icao":"EGGP","label":"EGGP - Liverpool John Lennon","name":"Liverpool John Lennon","lat":53.3336,"lon":-2.84978},"LFBO":{"icao":"LFBO","label":"LFBO - Toulouse Blagnac","name":"Toulouse Blagnac","lat":43.629,"lon":1.36397},"BIKF":{"icao":"BIKF","label":"BIKF - Keflavik","name":"Keflavik","lat":63.9816,"lon":-22.6146}}