{"id":"e7c0646c52634f4f92dfe98136c16183","departure":{"icao":"KLAX","label":"KLAX - Los Angeles Intl","name":"Los Angeles Intl","lat":33.9431,"lon":-118.409},"destination":{"icao":"KDFW","label":"KDFW - Dallas Fort Worth Intl","name":"Dallas Fort Worth Intl","lat":32.8972,"lon":-97.0377},"aircraft":"FlyByWire A32NX","simData":"NAVIGRAPH 2103","navData":"NAVIGRAPH 2103","flightTime":"2021-03-28","mainThumbnail":"main.webp","images":["r00001.webp","r00002.webp","r00003.webp","r00004.webp","r00005.webp","r00006.webp","r00007.webp"],"flightPlanFile":"e7c0646c52634f4f92dfe98136c16183.lnmpln","planType":"IFR","cruiseAlt":"39000","distance":"1,115 nm","procedures":{"sid":{"name":"LAXX1","runway":"07L"},"approach":{"name":"BOBIN","arinc":"I36L","runway":"36L","type":"ILS","transition":"ALLIN"}},"waypoint":[{"lat":"33.942497","lng":"-118.408051","name":"Los Angeles Intl","ident":"KLAX","alt":"128","region":"K2","procedure":"Departure","airway":"","restrictKt":"","type":"","freq":"","courseM":"","distance":"0.0","wind":"","remarks":"","isProcedure":false},{"lat":"","lng":"","name":"","ident":"RW07L","alt":"128","region":"","procedure":"SID LAXX1","airway":"Proceed to runway","restrictKt":"128","type":"","freq":"","courseM":"220","distance":"0.7","wind":"","remarks":"","isProcedure":true},{"lat":"","lng":"","name":"","ident":"","alt":"1,411","region":"","procedure":"SID LAXX1","airway":"Heading to manual termination","restrictKt":"","type":"","freq":"","courseM":"71","distance":"3.0","wind":"","remarks":"","isProcedure":true},{"lat":"33.783298","lng":"-118.054756","name":"Seal Beach Los Alamitos","ident":"SLI","alt":"9,034","region":"K2","procedure":"SID LAXX1","airway":"Direct to fix","restrictKt":"A 4,000","type":"VORTAC (L)","freq":"115.70","courseM":"107","distance":"17.8","wind":"","remarks":"","isProcedure":false},{"lat":"33.628098","lng":"-116.160194","name":"Thermal","ident":"TRM","alt":"39,000","region":"K2","procedure":"","airway":"J78 / J","restrictKt":"18,000-45,000","type":"VORTAC (H)","freq":"116.20","courseM":"82","distance":"95","wind":"","remarks":"","isProcedure":false},{"lat":"33.620605","lng":"-115.761658","name":"","ident":"SHADI","alt":"39,000","region":"K2","procedure":"","airway":"J169 / J","restrictKt":"18,000-45,000","type":"","freq":"","courseM":"78","distance":"19.9","wind":"","remarks":"","isProcedure":false},{"lat":"33.596066","lng":"-114.761269","name":"Blythe","ident":"BLH","alt":"39,000","region":"K2","procedure":"","airway":"J169 / J","restrictKt":"18,000-45,000","type":"VORTAC (H)","freq":"117.40","courseM":"77","distance":"50","wind":"","remarks":"","isProcedure":false},{"lat":"33.516182","lng":"-113.888870","name":"","ident":"SALOM","alt":"39,000","region":"K2","procedure":"","airway":"J169 / J","restrictKt":"18,000-45,000","type":"","freq":"","courseM":"82","distance":"44","wind":"","remarks":"","isProcedure":false},{"lat":"33.463593","lng":"-113.348915","name":"","ident":"KOFFA","alt":"39,000","region":"K2","procedure":"","airway":"J169 / J","restrictKt":"18,000-45,000","type":"","freq":"","courseM":"86","distance":"27","wind":"","remarks":"","isProcedure":false},{"lat":"33.433018","lng":"-111.970200","name":"Phoenix","ident":"PXR","alt":"39,000","region":"K2","procedure":"","airway":"J65 / J","restrictKt":"18,000-45,000","type":"VORTAC (H)","freq":"115.60","courseM":"79","distance":"69","wind":"","remarks":"","isProcedure":false},{"lat":"33.419983","lng":"-111.173798","name":"","ident":"TAGGS","alt":"39,000","region":"K2","procedure":"","airway":"J65 / J","restrictKt":"23,000-45,000","type":"","freq":"","courseM":"79","distance":"40","wind":"","remarks":"","isProcedure":false},{"lat":"33.319115","lng":"-108.045769","name":"","ident":"TMACK","alt":"39,000","region":"K2","procedure":"","airway":"J65 / J","restrictKt":"23,000-45,000","type":"","freq":"","courseM":"82","distance":"157","wind":"","remarks":"","isProcedure":false},{"lat":"33.282501","lng":"-107.280548","name":"Truth Or Consequences","ident":"TCS","alt":"39,000","region":"K2","procedure":"","airway":"J65 / J","restrictKt":"23,000-45,000","type":"VORTAC (H)","freq":"112.70","courseM":"80","distance":"38","wind":"","remarks":"","isProcedure":false},{"lat":"33.337479","lng":"-104.621246","name":"Chisum Roswell","ident":"CME","alt":"39,000","region":"K2","procedure":"","airway":"J65 / J","restrictKt":"24,000-45,000","type":"VORTAC (H)","freq":"116.10","courseM":"76","distance":"133","wind":"","remarks":"","isProcedure":false},{"lat":"32.481331","lng":"-99.863449","name":"Abilene","ident":"ABI","alt":"39,000","region":"K4","procedure":"","airway":"J65 / J","restrictKt":"25,000-45,000","type":"VORTAC (H)","freq":"113.70","courseM":"91","distance":"245","wind":"","remarks":"","isProcedure":false},{"lat":"32.889450","lng":"-97.179428","name":"Ranger Dallas-Fort Worth","ident":"FUZ","alt":"10,561","region":"K4","procedure":"","airway":"J66 / J","restrictKt":"18,000-45,000","type":"VORTAC (H)","freq":"115.70","courseM":"73","distance":"138","wind":"","remarks":"","isProcedure":false},{"lat":"","lng":"","name":"","ident":"ALLIN","alt":"5,528","region":"K4","procedure":"Transition ALLIN","airway":"Initial fix","restrictKt":"A 4,000","type":"","freq":"","courseM":"157","distance":"18.8","wind":"","remarks":"","isProcedure":true},{"lat":"","lng":"","name":"","ident":"HUTEN","alt":"4,684","region":"K4","procedure":"Transition ALLIN","airway":"Track to fix","restrictKt":"A 3,000","type":"","freq":"","courseM":"357","distance":"3.2","wind":"","remarks":"","isProcedure":true},{"lat":"","lng":"","name":"","ident":"CHAAR","alt":"3,000","region":"K4","procedure":"Transition ALLIN","airway":"Course to fix","restrictKt":"A 3,000","type":"","freq":"","courseM":"357","distance":"6.3","wind":"","remarks":"Related: IBXN / 10.0 nm / 176\u00b0M","isProcedure":true},{"lat":"","lng":"","name":"","ident":"CHAAR (FACF)","alt":"3,000","region":"K4","procedure":"Approach ILS BOBIN","airway":"Initial fix","restrictKt":"GS 2,300","type":"","freq":"","courseM":"","distance":"0.0","wind":"","remarks":"Related: IBXN / 10.0 nm / 176\u00b0M","isProcedure":true},{"lat":"","lng":"","name":"","ident":"BOBIN (FAF)","alt":"2,300","region":"K4","procedure":"Approach ILS BOBIN","airway":"Course to fix","restrictKt":"A 2,300","type":"","freq":"","courseM":"357","distance":"2.5","wind":"","remarks":"Related: IBXN / 7.6 nm / 176\u00b0M","isProcedure":true},{"lat":"","lng":"","name":"","ident":"RW36L (MAP)","alt":"637","region":"K4","procedure":"Approach ILS BOBIN","airway":"Course to fix","restrictKt":"637","type":"ILS/DME","freq":"111.90","courseM":"356","distance":"5.2","wind":"","remarks":"Related: IBXN / 2.4 nm / 176\u00b0M","isProcedure":true},{"lat":"","lng":"","name":"","ident":"","alt":"","region":"","procedure":"Missed ILS BOBIN","airway":"Course to altitude","restrictKt":"A 1,100","type":"","freq":"","courseM":"356","distance":"2.0","wind":"","remarks":"","isProcedure":true},{"lat":"","lng":"","name":"","ident":"","alt":"","region":"","procedure":"Missed ILS BOBIN","airway":"Heading to intercept","restrictKt":"","type":"","freq":"","courseM":"315","distance":"16.1","wind":"","remarks":"","isProcedure":true},{"lat":"","lng":"","name":"","ident":"KAGLE","alt":"","region":"K4","procedure":"Missed ILS BOBIN","airway":"Course to fix","restrictKt":"A 3,000","type":"","freq":"","courseM":"298","distance":"16.4","wind":"","remarks":"Related: CVE / 39 nm / 298\u00b0M","isProcedure":true},{"lat":"","lng":"","name":"","ident":"KAGLE","alt":"","region":"K4","procedure":"Missed ILS BOBIN","airway":"Hold to manual termination","restrictKt":"","type":"","freq":"","courseM":"","distance":"0.0","wind":"","remarks":"Turn right, Mandatory hold","isProcedure":true},{"lat":"32.897232","lng":"-97.037697","name":"Dallas-Ft Worth Intl","ident":"KDFW","alt":"637","region":"K4","procedure":"Destination","airway":"","restrictKt":"","type":"","freq":"","courseM":"","distance":"","wind":"","remarks":"","isProcedure":false}],"hasTrail":true}